{"meta": {"build": "3.23.121", "schema": "core.3", "tracking": "type|meta|data|resource_type|property_detail|query|client_id|rdc_mobile_native,13.3.0.53|schema|core.3|tag_version|v2^^^$0|1|2|$3|4|5|$6|7|8|9|A|B]]]", "returned_rows": 1, "matching_rows": 1, "tracking_params": {"ldpPropertyStatus": "ldp:for_rent", "pageType": "ldp", "leadDelivery": "basic", "leadEnhancements": "classic", "listingActivity": "active", "productType": "basic", "propertyStatus": "for_rent", "listingId": "2923002179", "rentalDataSource": "unit", "communityId": "unknown", "mprId": "3231175993", "listingMls": "unknown", "planId": "unknown", "subId": "unknown", "city": "Philadelphia", "neighborhood": "East Poplar", "state": "PA", "zip": "19123", "listingBaths": "1", "listingBeds": "2", "listingSqFt": "725", "listingEnhancements": "unknown", "listingPrice": "1225", "photoCount": "20", "propertyType": "ldp:apartment", "version": "1.0"}}, "properties": [{"property_id": "R3231175993", "listing_id": "2923002179", "prop_type": "apartment", "last_update": "2020-11-01T00:10:22.000Z", "listing_status": "active", "beds": 2, "description": "This two bedroom, one bathroom condo features a living and dining room. Kitchen with disposal, granite counter-tops and stainless-steel appliances, and washer/dryer in-unit. Hardwood floors are present throughout the unit. This home features large windows, wooden kitchen cabinets, and basement. There is on-street parking. Central heat and A/C in unit. Cats and small dogs welcomed.", "baths_full": 1, "prop_status": "for_rent", "address": {"city": "Philadelphia", "country": "USA", "county": "Philadelphia", "lat": 39.963541, "line": "734 North Ter Apt C", "postal_code": "19123", "state_code": "PA", "state": "Pennsylvania", "time_zone": "America/New_York", "neighborhood_name": "East Poplar", "neighborhoods": [{"id": "26239491-8e9e-5a24-8cde-82557c3606b5", "level": "neighborhood", "name": "East Poplar"}, {"id": "76ed9a24-66ef-5ac9-9572-a4a834132954", "level": "macro_neighborhood", "name": "Center City"}], "lon": -75.151347}, "features": [{"category": "Bathrooms", "text": ["Total Bathrooms: 1.0", "Full Bathrooms: 1"], "parent_category": "Interior"}, {"category": "Bedrooms", "text": ["Bedrooms: 2"], "parent_category": "Interior"}, {"category": "Amenities and Community Features", "text": ["Garage"], "parent_category": "Community"}, {"category": "Homeowners Association", "text": ["Pets Allowed: Yes"], "parent_category": "Community"}, {"category": "Rental Info", "text": ["Rent Frequency: monthly"], "parent_category": "Community"}, {"category": "Other Property Info", "text": ["Source Listing Status: Active", "City Region: North Philadelphia", "Availability Date: 2020-10-30", "Source Property Type: Apartment Rental", "Property Subtype: condo", "Source Neighborhood: East Poplar", "Source System Name: C2C"], "parent_category": "Listing"}, {"category": "Building and Construction", "text": ["SqFt Minimum: 725"], "parent_category": "Features"}], "client_display_flags": {"presentation_status": "for_rent", "is_showcase": false, "lead_form_phone_required": true, "price_change": 0, "has_specials": false, "is_mls_rental": false, "is_rental_community": false, "is_rental_unit": true, "is_co_star": false, "is_apartmentlist": false, "suppress_map_pin": false, "suppress_phone_call_lead_event": false, "price_reduced": false, "allows_cats": true, "allows_dogs": true, "allows_dogs_small": true, "allows_dogs_large": true}, "listing_provider_url": {"level": "listing", "type": "detail_url", "url": "https://rentalbeast.com/default/listings/show/4474531"}, "raw": {"status": "Active"}, "products": ["_UNIT_RENTAL", "_UNIT_RENTAL", "_UNIT_RENTAL", "_UNIT_RENTAL", "_UNIT_RENTAL"], "office": {"id": "4474531", "name": "RentalBeast", "email": "philly@rentalbeast.com", "phones": [{"number": "855-385-2490", "type": "unknown", "primary": true}]}, "lead_forms": {"form": {"name": {"required": true, "minimum_character_count": 1}, "email": {"required": true, "minimum_character_count": 5}, "move_in_date": {"required": false, "default_date": "2020-12-01T12:00:00Z", "minimum_days_from_today": 1, "maximum_days_from_today": 180}, "phone": {"required": true, "minimum_character_count": 10, "maximum_character_count": 11}, "message": {"required": false, "minimum_character_count": 0}, "show": true}, "show_agent": false, "show_broker": false, "show_provider": true, "show_management": false}, "lot_size": {"size": 0, "units": "sqft"}, "building_size": {"size": 725, "units": "sqft"}, "price": 1225, "rdc_web_url": "https://www.realtor.com/realestateandhomes-detail/734-North-Ter-Apt-C_Philadelphia_PA_19123_M32311-75993", "rdc_app_url": "move-rdc://www.realtor.com/realestateandhomes-detail/734-North-Ter-Apt-C_Philadelphia_PA_19123_M32311-75993", "baths": 1, "mortgage": {"rates_url": "http://www.realtor.com/mortgage/rates/?from=mobile#&zip=19123&property_price=1225&mlid=2923002179"}, "data_source_name": "unit_rental", "source": "unit_rental", "detail_tracking": "type|property|data|prop_id|3231175993|list_id|2923002179|address|city|Philadelphia|state|PA|postal|19123|neighborhood|East+Poplar|county|price|data_source|unit_rental|property_status|product_code|advantage_code^Y1|3YA|W|0^^$0|1|2|$3|4|5|6|7|$8|9|A|B|C|D|E|F|G|9]|H|N|I|J|K|O|L|P|M|Q]]", "lease_terms": "Call", "photo_count": 20, "photos": [{"href": "https://ar.rdcpix.com/4ee5784aef5d449a4bd3da60d34ace0el-f3726469923s.jpg"}, {"href": "https://ar.rdcpix.com/4ee5784aef5d449a4bd3da60d34ace0el-f2879795404s.jpg"}, {"href": "https://ar.rdcpix.com/4ee5784aef5d449a4bd3da60d34ace0el-f3688567975s.jpg"}, {"href": "https://ar.rdcpix.com/4ee5784aef5d449a4bd3da60d34ace0el-f4228920164s.jpg"}, {"href": "https://ar.rdcpix.com/4ee5784aef5d449a4bd3da60d34ace0el-f4127502749s.jpg"}, {"href": "https://ar.rdcpix.com/4ee5784aef5d449a4bd3da60d34ace0el-f1170309841s.jpg"}, {"href": "https://ar.rdcpix.com/4ee5784aef5d449a4bd3da60d34ace0el-f2790422765s.jpg"}, {"href": "https://ar.rdcpix.com/4ee5784aef5d449a4bd3da60d34ace0el-f2438819670s.jpg"}, {"href": "https://ar.rdcpix.com/4ee5784aef5d449a4bd3da60d34ace0el-f3206932764s.jpg"}, {"href": "https://ar.rdcpix.com/4ee5784aef5d449a4bd3da60d34ace0el-f2086085477s.jpg"}, {"href": "https://ar.rdcpix.com/4ee5784aef5d449a4bd3da60d34ace0el-f2375000833s.jpg"}, {"href": "https://ar.rdcpix.com/4ee5784aef5d449a4bd3da60d34ace0el-f189888390s.jpg"}, {"href": "https://ar.rdcpix.com/4ee5784aef5d449a4bd3da60d34ace0el-f2244353468s.jpg"}, {"href": "https://ar.rdcpix.com/4ee5784aef5d449a4bd3da60d34ace0el-f1643871695s.jpg"}, {"href": "https://ar.rdcpix.com/4ee5784aef5d449a4bd3da60d34ace0el-f335537236s.jpg"}, {"href": "https://ar.rdcpix.com/4ee5784aef5d449a4bd3da60d34ace0el-f4085047254s.jpg"}, {"href": "https://ar.rdcpix.com/4ee5784aef5d449a4bd3da60d34ace0el-f2303424910s.jpg"}, {"href": "https://ar.rdcpix.com/4ee5784aef5d449a4bd3da60d34ace0el-f3228656259s.jpg"}, {"href": "https://ar.rdcpix.com/4ee5784aef5d449a4bd3da60d34ace0el-f649713192s.jpg"}, {"href": "https://ar.rdcpix.com/4ee5784aef5d449a4bd3da60d34ace0el-f3799184358s.jpg"}], "schools": [{"nces_id": "421899003645", "id": "0760027911", "greatschools_id": "4201954", "name": "General Philip Kearny", "education_levels": ["elementary", "middle"], "funding_type": "public", "lat": 39.963841, "lon": -75.148078, "student_count": 328, "student_teacher_ratio": 16, "location": {"city_slug_id": "Philadelphia_PA", "postal_code": "19123", "state": "PA", "county": "Philadelphia", "city": "Philadelphia", "street": "601 Fairmount Avenue"}, "phone": "(215) 351-7343", "distance_in_miles": 0.2, "grades": {"range": {"low": "K", "high": "8"}}, "relevance": "assigned", "ratings": {"great_schools_rating": 2, "parent_rating": 5}}, {"nces_id": "421899003655", "id": "0760028021", "greatschools_id": "4201962", "name": "Spring Garden School", "education_levels": ["elementary", "middle"], "funding_type": "public", "lat": 39.965094, "lon": -75.156218, "student_count": 262, "student_teacher_ratio": 14.7, "location": {"city_slug_id": "Philadelphia_PA", "postal_code": "19123", "state": "PA", "county": "Philadelphia", "city": "Philadelphia", "street": "685 North 12th Street"}, "phone": "(215) 684-5070", "distance_in_miles": 0.3, "grades": {"range": {"low": "K", "high": "8"}}, "relevance": "assigned", "ratings": {"great_schools_rating": 5, "parent_rating": 3}}, {"nces_id": "421899003851", "id": "0760030011", "greatschools_id": "4202101", "name": "Franklin Benjamin High School", "education_levels": ["high"], "funding_type": "public", "lat": 39.963443, "lon": -75.162241, "student_count": 484, "student_teacher_ratio": 14.3, "location": {"city_slug_id": "Philadelphia_PA", "postal_code": "19130", "state": "PA", "county": "Philadelphia", "city": "Philadelphia", "street": "550 North Broad Street"}, "phone": "(215) 299-4662", "distance_in_miles": 0.6, "grades": {"range": {"low": "9", "high": "12"}}, "relevance": "assigned", "ratings": {"great_schools_rating": 2, "parent_rating": 5}}, {"nces_id": "420008000566", "id": "0760074351", "greatschools_id": "4205206", "name": "Walter D Palmer Leadership Learning Partnership Cs", "education_levels": ["elementary", "middle", "high"], "funding_type": "public", "lat": 39.967915, "lon": -75.147224, "student_count": 1144, "location": {"city_slug_id": "Philadelphia_PA", "postal_code": "19123", "state": "PA", "county": "Philadelphia", "city": "Philadelphia", "street": "910 North 6th Street"}, "phone": "(215) 627-7434", "distance_in_miles": 0.4, "grades": {"range": {"low": "PK", "high": "12"}}, "relevance": "nearby", "ratings": {"great_schools_rating": null, "parent_rating": 3}}, {"nces_id": "420005800500", "id": "0760073411", "greatschools_id": "4205139", "name": "Young Scholars Cs", "education_levels": ["middle"], "funding_type": "public", "lat": 39.967646, "lon": -75.148202, "student_count": 249, "student_teacher_ratio": 13.7, "location": {"city_slug_id": "Philadelphia_PA", "postal_code": "19123", "state": "PA", "county": "Philadelphia", "city": "Philadelphia", "street": "900 North Marshall Street"}, "phone": "(215) 232-9727", "distance_in_miles": 0.3, "grades": {"range": {"low": "5", "high": "8"}}, "relevance": "nearby", "ratings": {"great_schools_rating": 6, "parent_rating": 5}}, {"nces_id": "421899000771", "id": "0760086261", "greatschools_id": "4206040", "name": "Parkway-Center City", "education_levels": ["high"], "funding_type": "public", "lat": 39.962935, "lon": -75.159443, "student_count": 476, "student_teacher_ratio": 22.3, "location": {"city_slug_id": "Philadelphia_PA", "postal_code": "19123", "state": "PA", "county": "Philadelphia", "city": "Philadelphia", "street": "540 North 13th Street"}, "phone": "(215) 299-8801", "distance_in_miles": 0.4, "grades": {"range": {"low": "9", "high": "12"}}, "relevance": "nearby", "ratings": {"great_schools_rating": 6, "parent_rating": 4}}, {"nces_id": "01186842", "id": "0760047931", "greatschools_id": "4203356", "name": "Holy Redeemer School", "education_levels": ["elementary", "middle"], "funding_type": "private", "lat": 39.957207, "lon": -75.155029, "student_count": 283, "location": {"city_slug_id": "Philadelphia_PA", "postal_code": "19107", "state": "PA", "county": "Philadelphia", "city": "Philadelphia", "street": "915 Vine Street"}, "phone": "(215) 922-0999", "distance_in_miles": 0.5, "grades": {"range": {"low": "K", "high": "8"}}, "relevance": "nearby", "ratings": {"great_schools_rating": null, "parent_rating": 5}}, {"nces_id": "01187631", "id": "0760048631", "greatschools_id": "4203405", "name": "St Peter The Apostle School", "education_levels": ["elementary", "middle"], "funding_type": "private", "lat": 39.969262, "lon": -75.144897, "student_count": 215, "location": {"city_slug_id": "Philadelphia_PA", "postal_code": "19123", "state": "PA", "county": "Philadelphia", "city": "Philadelphia", "street": "1009 North 5th Street"}, "phone": "(215) 922-5958", "distance_in_miles": 0.5, "grades": {"range": {"low": "PK", "high": "8"}}, "relevance": "nearby", "ratings": {"great_schools_rating": null, "parent_rating": 4}}]}]}