{"meta": {"build": "3.23.121", "schema": "core.3", "tracking": "type|meta|data|resource_type|property_detail|query|client_id|rdc_mobile_native,13.3.0.53|schema|core.3|tag_version|v2^^^$0|1|2|$3|4|5|$6|7|8|9|A|B]]]", "returned_rows": 1, "matching_rows": 1, "tracking_params": {"ldpPropertyStatus": "ldp:for_sale", "pageType": "ldp", "leadDelivery": "co_broke", "leadEnhancements": "classic", "listingActivity": "pending", "productType": "core.agent", "propertyStatus": "for_sale", "listingId": "2919310052", "rentalDataSource": "unknown", "advertiserIdAgent": "3240709", "advertiserIdOffice": "2897415", "communityId": "unknown", "mprId": "9028101186", "listingMls": "PHPA", "planId": "unknown", "subId": "unknown", "city": "Philadelphia", "neighborhood": "Fishtown", "state": "PA", "zip": "19125", "listingBaths": "0", "listingBeds": "", "listingSqFt": "unknown", "listingEnhancements": "broker-phone-btm", "listingPrice": "900000", "photoCount": "1", "propertyType": "ldp:land", "version": "1.0"}}, "properties": [{"property_id": "M9028101186", "prop_status": "for_sale", "listing_id": "2919310052", "prop_type": "land", "list_date": "2020-08-01T12:08:18Z", "hoa_fee": 0, "hoa_historic_fee": null, "last_update": "2020-10-23T13:01:37Z", "broker": {"name": "Kw Real Estate-Newtown", "phone1": {"number": "(215) 860-4200", "type": "broker"}}, "year_built": null, "listing_status": "Pending", "beds": null, "description": "Fantastic opportunity for developers and/or investors. Three building lots in the heart of Fishtown. Sellers need March 2021 settlement date", "stories": null, "schools": [{"nces_id": "421899006524", "id": "0760030601", "greatschools_id": "4202142", "name": "Adaire Alexander School", "education_levels": ["elementary", "middle"], "funding_type": "public", "lat": 39.972235, "lon": -75.130149, "student_count": 349, "student_teacher_ratio": 14.8, "location": {"city_slug_id": "Philadelphia_PA", "postal_code": "19125", "state": "PA", "county": "Philadelphia", "city": "Philadelphia", "street": "1300 East Palmer Street"}, "phone": "(215) 291-4712", "distance_in_miles": 0.1, "grades": {"range": {"low": "K", "high": "8"}}, "relevance": "assigned", "ratings": {"great_schools_rating": 5, "parent_rating": 4}}, {"nces_id": "421899007502", "id": "0760029651", "greatschools_id": "4202077", "name": "Penn Treaty Middle School", "education_levels": ["middle", "high"], "funding_type": "public", "lat": 39.972588, "lon": -75.127541, "student_count": 524, "student_teacher_ratio": 14.4, "location": {"city_slug_id": "Philadelphia_PA", "postal_code": "19125", "state": "PA", "county": "Philadelphia", "city": "Philadelphia", "street": "600 East Thompson Street"}, "phone": "(215) 291-4715", "distance_in_miles": 0.2, "grades": {"range": {"low": "6", "high": "12"}}, "relevance": "assigned", "ratings": {"great_schools_rating": 1, "parent_rating": 3}}, {"nces_id": "421899007225", "id": "0760031041", "greatschools_id": "4202174", "name": "Bodine William W High School", "education_levels": ["high"], "funding_type": "public", "lat": 39.96817, "lon": -75.143148, "student_count": 513, "student_teacher_ratio": 20.3, "location": {"city_slug_id": "Philadelphia_PA", "postal_code": "19123", "state": "PA", "county": "Philadelphia", "city": "Philadelphia", "street": "1101 North 4th St"}, "phone": "(215) 351-7332", "distance_in_miles": 0.7, "grades": {"range": {"low": "9", "high": "12"}}, "relevance": "assigned", "ratings": {"great_schools_rating": 7, "parent_rating": 4}}, {"nces_id": "421899003697", "id": "0760028321", "greatschools_id": "4201983", "name": "Moffet John School", "education_levels": ["elementary"], "funding_type": "public", "lat": 39.974701, "lon": -75.136, "student_count": 309, "student_teacher_ratio": 17.6, "location": {"city_slug_id": "Philadelphia_PA", "postal_code": "19122", "state": "PA", "county": "Philadelphia", "city": "Philadelphia", "street": "127 West Oxford Street"}, "phone": "(215) 291-4721", "distance_in_miles": 0.3, "grades": {"range": {"low": "K", "high": "5"}}, "relevance": "nearby", "ratings": {"great_schools_rating": 4, "parent_rating": 5}}, {"nces_id": "421899003694", "id": "0760028311", "greatschools_id": "4201982", "name": "Ludlow James R School", "education_levels": ["elementary", "middle"], "funding_type": "public", "lat": 39.972667, "lon": -75.145897, "student_count": 303, "student_teacher_ratio": 11.9, "location": {"city_slug_id": "Philadelphia_PA", "postal_code": "19122", "state": "PA", "county": "Philadelphia", "city": "Philadelphia", "street": "550 Master Street"}, "phone": "(215) 684-5060", "distance_in_miles": 0.8, "grades": {"range": {"low": "PK", "high": "8"}}, "relevance": "nearby", "ratings": {"great_schools_rating": 4, "parent_rating": 3}}, {"nces_id": "421899007598", "id": "0760215361", "greatschools_id": "4215077", "name": "Kensington HS", "education_levels": ["high"], "funding_type": "public", "lat": 39.984165, "lon": -75.126373, "student_count": 558, "location": {"city_slug_id": "Philadelphia_PA", "postal_code": "19125", "state": "PA", "county": "Philadelphia", "city": "Philadelphia", "street": "2501 Coral Street"}, "phone": "(215) 400-7700", "distance_in_miles": 0.8, "grades": {"range": {"low": "9", "high": "12"}}, "relevance": "nearby", "ratings": {"great_schools_rating": null, "parent_rating": null}}, {"nces_id": "A0302698", "id": "0760088741", "greatschools_id": "4206213", "name": "Holy Name of Jesus School", "education_levels": ["elementary", "middle"], "funding_type": "private", "lat": 39.975201, "lon": -75.127701, "location": {"city_slug_id": "Philadelphia_PA", "postal_code": "19125", "state": "PA", "county": "Philadelphia", "city": "Philadelphia", "street": "1429 E Berks Street"}, "phone": "(215) 423-3334", "distance_in_miles": 0.2, "grades": {"range": {"low": "PK", "high": "8"}}, "relevance": "nearby", "ratings": {"great_schools_rating": null, "parent_rating": null}}, {"nces_id": "01186831", "id": "0760047921", "greatschools_id": "4203355", "name": "Holy Name of Jesus", "education_levels": ["elementary", "middle"], "funding_type": "private", "lat": 39.975498, "lon": -75.127899, "location": {"city_slug_id": "Philadelphia_PA", "postal_code": "19125", "state": "PA", "county": "Philadelphia", "city": "Philadelphia", "street": "East Berks and Gaul Streets"}, "phone": "(215) 423-3334", "distance_in_miles": 0.2, "grades": {"range": {"low": "PK", "high": "8"}}, "relevance": "nearby", "ratings": {"great_schools_rating": null, "parent_rating": 5}}], "feature_tags": [], "branding": {"listing_agent": {"photo_attribution": {"name": "Patricia Strehle", "photo": null, "phone": null, "slogan": null, "show_realtor_logo": false, "link": null, "accent_color": null}, "details": {"name": "Patricia Strehle", "photo": null, "phone": null, "slogan": null, "show_realtor_logo": false, "link": "/realestateagents/Patricia-Strehle_Philadelphia_PA_3240709", "accent_color": null}}, "listing_office": {"photo_attribution": {"name": "Kw Real Estate-Newtown", "photo": null, "phone": null, "slogan": null, "show_realtor_logo": false, "link": null, "accent_color": null}, "details": {"name": "Kw Real Estate-Newtown", "photo": null, "phone": "(215) 860-4200", "slogan": null, "show_realtor_logo": false, "link": null, "accent_color": null}}, "team_name": null}, "address": {"city": "Philadelphia", "line": "42428 Belgrade St", "postal_code": "19125", "address_validation_code": "190", "state_code": "PA", "state": "Pennsylvania", "county": "Philadelphia", "fips_code": "42101", "time_zone": "America/New_York", "lat": 39.9732666, "lon": -75.13108826, "neighborhood_name": "Fishtown", "neighborhoods": [{"name": "Fishtown", "city": "Philadelphia", "state_code": "PA", "level": "neighborhood", "id": null}, {"name": "River Wards", "city": "Philadelphia", "state_code": "PA", "level": "macro_neighborhood", "id": "553"}]}, "features": [{"category": "Land Info", "parent_category": "Exterior", "text": ["Lot Size Acres: 0.0963039", "Lot Size Square Feet: 4194"]}, {"category": "Homeowners Association", "parent_category": "Community", "text": ["Association: No", "Calculated Total Monthly Association Fees: 0"]}, {"category": "School Information", "parent_category": "Community", "text": ["School District: THE SCHOOL DISTRICT OF PHILADELPHIA"]}, {"category": "Other Property Info", "parent_category": "Listing", "text": ["Annual Tax Amount: 2758.0", "Source Listing Status: Pending", "County: PHILADELPHIA", "Ownership: Fee Simple", "Source Property Type: Land", "Area: PHILADELPHIA", "Source Neighborhood: FISHTOWN", "Subdivision: FISHTOWN", "Township: PHILADELPHIA", "Source System Name: C2C"]}, {"category": "Building and Construction", "parent_category": "Features", "text": ["Structure Type: Land"]}, {"category": "Legal and finance", "text": ["HOA Frequency: Monthly/0", "HOA fee: $0"]}], "mls": {"name": "BrightMLS", "id": "PAPH920852", "plan_id": null, "abbreviation": "PHPA", "type": "mls", "disclaimer": {"photo": null, "href": null, "text": "\u00a92020 Bright MLS, Inc. All Rights Reserved."}}, "client_display_flags": {"presentation_status": "for_sale", "is_showcase": false, "lead_form_phone_required": true, "price_change": 0, "is_co_broke_email": false, "has_open_house": false, "is_foreclosure": false, "is_short_sale": false, "is_co_broke_phone": false, "is_new_listing": false, "is_new_plan": false, "is_new_construction": false, "is_turbo": false, "is_office_standard_listing": false, "suppress_map_pin": false, "is_pending": true, "show_contact_a_lender_in_lead_form": false, "show_veterans_united_in_lead_form": false, "is_showcase_choice_enabled": false}, "tax_history": [], "property_history": [{"event_name": "Listed", "date": "2020-08-01T17:00:00Z", "price": 900000, "price_range_min": null, "price_range_max": null, "price_changed": 0, "sqft": 0, "datasource_name": "BrightMLS", "source": "MLS #PAPH920852"}], "products": ["core.agent"], "office": {"name": "Kw Real Estate-Newtown", "advertiser_id": 2897415, "mls_set": "O-PHPA-55529", "href": null, "photo": {"href": ""}, "email": "larrybminsky@gmail.com", "slogan": "", "phones": [{"number": "215-860-4200", "type": "office", "primary": true}], "address": {"city": "NEWTOWN", "state_code": "PA"}, "mls_membership": {"member": {"office_system_id": "55529"}}, "id": "5af2703138722033189ff73fcf3a1a3c"}, "agents": [{"name": "Patricia Strehle", "profile_name": "Patricia Strehle", "advertiser_id": "3240709", "href": null, "photo": null, "nrds_id": null, "nrds_verified_id": null, "office_name": "Kw Real Estate-Newtown", "email": "patwisestrehle@comcast.net", "slogan": null, "mls_memberships": {"member": {"agent_system_id": "3122902", "name": "Patricia Strehle", "office_system_id": "55529", "id": "3122902", "abbreviation": "PHPA"}}, "id": "3240709", "primary": true}], "lead_forms": {"form": {"name": {"required": true, "minimum_character_count": 1}, "email": {"required": true, "minimum_character_count": 5}, "phone": {"required": true, "minimum_character_count": 10, "maximum_character_count": 11}, "message": {"required": false, "minimum_character_count": 0}, "show": true}, "show_agent": false, "show_broker": false, "show_builder": false, "show_contact_a_lender": false, "show_veterans_united": false, "form_type": "classic", "lead_type": "co_broke", "is_lcm_enabled": false, "flip_the_market_enabled": false, "show_text_leads": true, "cashback_enabled": false}, "lot_size": {"size": 4195, "units": "sqft"}, "price": 900000, "rdc_web_url": "https://www.realtor.com/realestateandhomes-detail/42428-Belgrade-St_Philadelphia_PA_19125_M90281-01186", "rdc_app_url": "move-rdc://www.realtor.com/realestateandhomes-detail/42428-Belgrade-St_Philadelphia_PA_19125_M90281-01186", "baths": 0, "photo_count": 1, "raw": {"status": "Pending", "tax_amount": 2758}, "photo_attribution": ["Presented by Patricia Strehle with Kw Real Estate-Newtown"], "mortgage": {"rates_url": "https://www.realtor.com/mortgage/rates/?from=mobile#zip=19125&property_price=900000&mlid=2919310052", "estimate": {"loan_amount": 720000, "rate": 2.92, "term": 30, "monthly_payment": 3563, "principal_and_interest": 3005, "monthly_property_taxes": 230, "monthly_home_insurance": 328, "hoa_fees": 0, "monthly_mortgage_insurance": 0, "total_payment": 1081646, "down_payment": 180000}}, "data_source_name": "mls", "trend": {"listing_count": {"for_sale": 280, "rental": 187, "sold": 43}, "active_listing_count": 280, "asking_to_sold_price_percent_change": -0.87, "median": {"age_days": 56, "listing_price": 379000, "listing_price_sqft": 268, "rental_listing_price": 1772, "closing_price": 365000, "by_prop_type": {"condos": {"listing_price": 381950, "closing_price": null}, "condo_townhome_rowhome_coop": {"listing_price": 340750, "closing_price": 321500}, "multi_family": {"listing_price": 459450, "closing_price": null}, "single_family": {"listing_price": 404499, "closing_price": null}, "townhomes": {"listing_price": 395000, "closing_price": 378000}}}, "hotmarket_rank": null, "hotmarket_index": null, "sales_to_inventory_count_percent": 15.36, "sales_to_inventory_count_percent_market_type": "balanced", "hotmarket_temperature": null, "year": 2020, "month": 9, "geo": {"state_code": "PA", "city": "Philadelphia", "neighborhood": "Fishtown"}}, "detail_tracking": "type|property|data|prop_id|9028101186|list_id|2919310052|address|city|Philadelphia|state|PA|postal|19125|neighborhood|Fishtown|county|mls|id|PAPH920852|abbr|PHPA|price|detail_branding|listing_agent|listing_office|data_source|advertiser_id|agent|office|property_status|product_code|advantage_code^JAG0|2WAP|FSX|1XGJP|1Q3NR|6BL|0|1^^$0|1|2|$3|4|5|6|7|$8|9|A|B|C|D|E|F|G|9]|H|$I|J|K|L]|M|X|N|$O|Y|P|Z]|Q|H|R|$S|10|T|11]|U|12|V|13|W|14]]", "photos": [{"description": "", "href": "https://ap.rdcpix.com/1f1cf30340fb1f4614bc09649ab2dd39l-m3486954417x.jpg", "tags": [{"label": "road_view", "probability": 0.8265103101730347}, {"label": "yard", "probability": 0.11758232861757278}, {"label": "garage", "probability": 0.04286109656095505}], "type": "realtordotcom_mls_listing_image"}]}]}