{"meta": {"build": "3.23.121", "schema": "core.3", "tracking": "type|meta|data|resource_type|property_detail|query|client_id|rdc_mobile_native,13.3.0.53|schema|core.3|tag_version|v2^^^$0|1|2|$3|4|5|$6|7|8|9|A|B]]]", "returned_rows": 1, "matching_rows": 1, "tracking_params": {"ldpPropertyStatus": "ldp:for_rent", "pageType": "ldp", "leadDelivery": "basic", "leadEnhancements": "classic", "listingActivity": "active", "productType": "basic", "propertyStatus": "for_rent", "listingId": "2923005045", "rentalDataSource": "unit", "communityId": "unknown", "mprId": "4962614505", "listingMls": "unknown", "planId": "unknown", "subId": "unknown", "city": "Philadelphia", "neighborhood": "North Central", "state": "PA", "zip": "19121", "listingBaths": "3", "listingBeds": "5", "listingSqFt": "2300", "listingEnhancements": "unknown", "listingPrice": "2250", "photoCount": "31", "propertyType": "ldp:single_family", "version": "1.0"}}, "properties": [{"property_id": "R4962614505", "listing_id": "2923005045", "prop_type": "single_family", "last_update": "2020-11-01T05:01:43.000Z", "listing_status": "active", "beds": 5, "description": "- (RLNE6201386) Large 5 bedroom house furnished - Property Id: 409075Large single family home for rent. 2300 square feet. Finished basement large bedrooms with closets. New fixtures brand new stainless steel appliances. Advertised rent is for 1 year lease. Longer lease terms brings down the rent. This is the lowest priced 5 bedroom in philly with furnishings and luxury. Washer and dryer. Secure property on corner plot will not last call today. (917)-224-3758Apply at TurboTenant: Id 409075No Pets Allowed", "baths_full": 2, "baths_half": 1, "prop_status": "for_rent", "address": {"city": "Philadelphia", "country": "USA", "county": "Philadelphia", "lat": 39.983513, "line": "1860 N 23rd St", "postal_code": "19121", "state_code": "PA", "state": "Pennsylvania", "time_zone": "America/New_York", "neighborhood_name": "North Central", "neighborhoods": [{"id": "84513032-f3fc-5086-96a6-43067a724049", "level": "neighborhood", "name": "North Central"}, {"id": "6818799f-7f5e-51ea-9e9b-274361cb954d", "level": "macro_neighborhood", "name": "Lower North"}], "lon": -75.172079}, "features": [{"category": "Bedrooms", "text": ["Bedrooms: 5"], "parent_category": "Interior"}, {"category": "Bathrooms", "text": ["Full Bathrooms: 2", "1/2 Bathrooms: 1"], "parent_category": "Interior"}, {"category": "Amenities and Community Features", "text": ["Water Included", "No Dogs Allowed", "No Pets Allowed", "Dishwasher"], "parent_category": "Community"}, {"category": "Multi-Unit Info", "text": ["Number of Units: 1"], "parent_category": "Community"}, {"category": "Homeowners Association", "text": ["Pets Allowed: N", "Cats Allowed: No", "Dogs Allowed: No"], "parent_category": "Community"}, {"category": "Rental Info", "text": ["Security Deposit: 2250"], "parent_category": "Community"}, {"category": "Other Property Info", "text": ["Availability Date: 2020-11-15", "List Price Low: 2250", "Source Property Type: House", "Source System Name: C2C"], "parent_category": "Listing"}, {"category": "Building and Construction", "text": ["SqFt Maximum: 2300", "SqFt Minimum: 2300"], "parent_category": "Features"}], "client_display_flags": {"presentation_status": "for_rent", "is_showcase": false, "lead_form_phone_required": true, "price_change": 0, "has_specials": false, "is_mls_rental": false, "is_rental_community": false, "is_rental_unit": true, "is_co_star": false, "is_apartmentlist": false, "suppress_map_pin": false, "suppress_phone_call_lead_event": false, "price_reduced": false}, "products": ["_UNIT_RENTAL", "_UNIT_RENTAL", "_UNIT_RENTAL", "_UNIT_RENTAL", "_UNIT_RENTAL"], "office": {"id": "6201386", "name": "RentlinxUnits", "email": "rentalservice@move.com", "phones": [{"number": "917-224-3758", "type": "unknown", "primary": true}]}, "lead_forms": {"form": {"name": {"required": true, "minimum_character_count": 1}, "email": {"required": true, "minimum_character_count": 5}, "move_in_date": {"required": false, "default_date": "2020-12-01T12:00:00Z", "minimum_days_from_today": 1, "maximum_days_from_today": 180}, "phone": {"required": true, "minimum_character_count": 10, "maximum_character_count": 11}, "message": {"required": false, "minimum_character_count": 0}, "show": true}, "show_agent": false, "show_broker": false, "show_provider": true, "show_management": false}, "lot_size": {"size": 0, "units": "sqft"}, "building_size": {"size": 2300, "units": "sqft"}, "price": 2250, "rdc_web_url": "https://www.realtor.com/realestateandhomes-detail/1860-N-23rd-St_Philadelphia_PA_19121_M49626-14505", "rdc_app_url": "move-rdc://www.realtor.com/realestateandhomes-detail/1860-N-23rd-St_Philadelphia_PA_19121_M49626-14505", "baths": 3, "mortgage": {"rates_url": "http://www.realtor.com/mortgage/rates/?from=mobile#&zip=19121&property_price=2250&mlid=2923005045"}, "data_source_name": "unit_rental", "source": "unit_rental", "detail_tracking": "type|property|data|prop_id|4962614505|list_id|2923005045|address|city|Philadelphia|state|PA|postal|19121|neighborhood|North+Central|county|price|data_source|unit_rental|property_status|product_code|advantage_code^1QI|3YA|W|0^^$0|1|2|$3|4|5|6|7|$8|9|A|B|C|D|E|F|G|9]|H|N|I|J|K|O|L|P|M|Q]]", "lease_terms": "Call", "photo_count": 31, "photos": [{"href": "https://ar.rdcpix.com/764f1f79f1d3b2b0facccd05fade05b4l-f3423342210s.jpg"}, {"href": "https://ar.rdcpix.com/764f1f79f1d3b2b0facccd05fade05b4l-f1141533405s.jpg"}, {"href": "https://ar.rdcpix.com/764f1f79f1d3b2b0facccd05fade05b4l-f3819101891s.jpg"}, {"href": "https://ar.rdcpix.com/764f1f79f1d3b2b0facccd05fade05b4l-f3141361871s.jpg"}, {"href": "https://ar.rdcpix.com/764f1f79f1d3b2b0facccd05fade05b4l-f2431805332s.jpg"}, {"href": "https://ar.rdcpix.com/764f1f79f1d3b2b0facccd05fade05b4l-f2630533767s.jpg"}, {"href": "https://ar.rdcpix.com/764f1f79f1d3b2b0facccd05fade05b4l-f3327230240s.jpg"}, {"href": "https://ar.rdcpix.com/764f1f79f1d3b2b0facccd05fade05b4l-f4247633247s.jpg"}, {"href": "https://ar.rdcpix.com/764f1f79f1d3b2b0facccd05fade05b4l-f1622374603s.jpg"}, {"href": "https://ar.rdcpix.com/764f1f79f1d3b2b0facccd05fade05b4l-f336715572s.jpg"}, {"href": "https://ar.rdcpix.com/764f1f79f1d3b2b0facccd05fade05b4l-f3729038528s.jpg"}, {"href": "https://ar.rdcpix.com/764f1f79f1d3b2b0facccd05fade05b4l-f3253352055s.jpg"}, {"href": "https://ar.rdcpix.com/764f1f79f1d3b2b0facccd05fade05b4l-f445457264s.jpg"}, {"href": "https://ar.rdcpix.com/764f1f79f1d3b2b0facccd05fade05b4l-f2988063250s.jpg"}, {"href": "https://ar.rdcpix.com/764f1f79f1d3b2b0facccd05fade05b4l-f3288220199s.jpg"}, {"href": "https://ar.rdcpix.com/764f1f79f1d3b2b0facccd05fade05b4l-f3784987091s.jpg"}, {"href": "https://ar.rdcpix.com/764f1f79f1d3b2b0facccd05fade05b4l-f171992667s.jpg"}, {"href": "https://ar.rdcpix.com/764f1f79f1d3b2b0facccd05fade05b4l-f169619856s.jpg"}, {"href": "https://ar.rdcpix.com/764f1f79f1d3b2b0facccd05fade05b4l-f1346097414s.jpg"}, {"href": "https://ar.rdcpix.com/764f1f79f1d3b2b0facccd05fade05b4l-f2705810296s.jpg"}, {"href": "https://ar.rdcpix.com/764f1f79f1d3b2b0facccd05fade05b4l-f3262074731s.jpg"}, {"href": "https://ar.rdcpix.com/764f1f79f1d3b2b0facccd05fade05b4l-f1331784299s.jpg"}, {"href": "https://ar.rdcpix.com/764f1f79f1d3b2b0facccd05fade05b4l-f2493290119s.jpg"}, {"href": "https://ar.rdcpix.com/764f1f79f1d3b2b0facccd05fade05b4l-f2251665632s.jpg"}, {"href": "https://ar.rdcpix.com/764f1f79f1d3b2b0facccd05fade05b4l-f72040038s.jpg"}, {"href": "https://ar.rdcpix.com/764f1f79f1d3b2b0facccd05fade05b4l-f238112892s.jpg"}, {"href": "https://ar.rdcpix.com/764f1f79f1d3b2b0facccd05fade05b4l-f188609011s.jpg"}, {"href": "https://ar.rdcpix.com/764f1f79f1d3b2b0facccd05fade05b4l-f192601828s.jpg"}, {"href": "https://ar.rdcpix.com/764f1f79f1d3b2b0facccd05fade05b4l-f1336528565s.jpg"}, {"href": "https://ar.rdcpix.com/764f1f79f1d3b2b0facccd05fade05b4l-f30032388s.jpg"}, {"href": "https://ar.rdcpix.com/764f1f79f1d3b2b0facccd05fade05b4l-f851513658s.jpg"}], "schools": [{"nces_id": "420083007365", "id": "0760027721", "greatschools_id": "4201941", "name": "Young Scholars Frederick Douglass Charter School", "education_levels": ["elementary", "middle"], "funding_type": "public", "lat": 39.983421, "lon": -75.169983, "student_count": 749, "student_teacher_ratio": 15.4, "location": {"city_slug_id": "Philadelphia_PA", "postal_code": "19121", "state": "PA", "county": "Philadelphia", "city": "Philadelphia", "street": "2118 West Norris Street"}, "phone": "(267) 443-0673", "distance_in_miles": 0.1, "grades": {"range": {"low": "K", "high": "8"}}, "relevance": "assigned", "ratings": {"great_schools_rating": 3, "parent_rating": 4}}, {"nces_id": "421899003786", "id": "0760029221", "greatschools_id": "4202046", "name": "Dick William School", "education_levels": ["elementary", "middle"], "funding_type": "public", "lat": 39.986698, "lon": -75.173687, "student_count": 513, "student_teacher_ratio": 16.1, "location": {"city_slug_id": "Philadelphia_PA", "postal_code": "19121", "state": "PA", "county": "Philadelphia", "city": "Philadelphia", "street": "2498 West Diamond street"}, "phone": "(215) 684-5081", "distance_in_miles": 0.2, "grades": {"range": {"low": "K", "high": "8"}}, "relevance": "assigned", "ratings": {"great_schools_rating": 3, "parent_rating": 3}}, {"nces_id": "421899003839", "id": "0760029841", "greatschools_id": "4202090", "name": "Strawberry Mansion High School", "education_levels": ["high"], "funding_type": "public", "lat": 39.990228, "lon": -75.184373, "student_count": 277, "student_teacher_ratio": 16.5, "location": {"city_slug_id": "Philadelphia_PA", "postal_code": "19121", "state": "PA", "county": "Philadelphia", "city": "Philadelphia", "street": "3133 Ridge Avenue"}, "phone": "(215) 684-5089", "distance_in_miles": 0.8, "grades": {"range": {"low": "9", "high": "12"}}, "relevance": "assigned", "ratings": {"great_schools_rating": 2, "parent_rating": 2}}, {"nces_id": "420003900398", "id": "0760000541", "greatschools_id": "4200039", "name": "Alliance For Progress Cs", "education_levels": ["elementary", "middle"], "funding_type": "public", "lat": 39.979829, "lon": -75.165434, "student_count": 468, "student_teacher_ratio": 12.1, "location": {"city_slug_id": "Philadelphia_PA", "postal_code": "19121", "state": "PA", "county": "Philadelphia", "city": "Philadelphia", "street": "1821 Cecil B. Moore Avenue"}, "phone": "(215) 232-4892", "distance_in_miles": 0.4, "grades": {"range": {"low": "K", "high": "8"}}, "relevance": "nearby", "ratings": {"great_schools_rating": 5, "parent_rating": 3}}, {"nces_id": "421899003625", "id": "0760027731", "greatschools_id": "4201942", "name": "Gideon Edward School", "education_levels": ["elementary", "middle"], "funding_type": "public", "lat": 39.984313, "lon": -75.180659, "student_count": 277, "student_teacher_ratio": 14.2, "location": {"city_slug_id": "Philadelphia_PA", "postal_code": "19121", "state": "PA", "county": "Philadelphia", "city": "Philadelphia", "street": "2817 West Glenwood Avenue"}, "phone": "(215) 684-5072", "distance_in_miles": 0.5, "grades": {"range": {"low": "PK", "high": "8"}}, "relevance": "nearby", "ratings": {"great_schools_rating": 2, "parent_rating": 2}}, {"nces_id": "421899007023", "id": "0760031011", "greatschools_id": "4202171", "name": "Carver High School", "education_levels": ["middle", "high"], "funding_type": "public", "lat": 39.983471, "lon": -75.16136, "student_count": 889, "student_teacher_ratio": 22.4, "location": {"city_slug_id": "Philadelphia_PA", "postal_code": "19121", "state": "PA", "county": "Philadelphia", "city": "Philadelphia", "street": "1600 West Norris Street"}, "phone": "(215) 684-5079", "distance_in_miles": 0.6, "grades": {"range": {"low": "7", "high": "12"}}, "relevance": "nearby", "ratings": {"great_schools_rating": 6, "parent_rating": 5}}, {"nces_id": "436b28457a75914fd862dc98988c838e", "id": "0760104861", "greatschools_id": "4207342", "name": "Community Partnership", "education_levels": ["elementary", "middle", "high"], "funding_type": "private", "lat": 39.984749, "lon": -75.172424, "student_count": 83, "location": {"city_slug_id": "Philadelphia_PA", "postal_code": "19121", "state": "PA", "county": "Philadelphia", "city": "Philadelphia", "street": "1936 N Judson St"}, "phone": "(215) 235-0461", "distance_in_miles": 0.1, "relevance": "nearby", "ratings": {"great_schools_rating": null, "parent_rating": 5}}, {"nces_id": "A9503584", "id": "0760067841", "greatschools_id": "4204750", "name": "Marcus Garvey Shule Pos. Ed", "education_levels": ["elementary", "middle"], "funding_type": "private", "lat": 39.982201, "lon": -75.1689, "location": {"city_slug_id": "Philadelphia_PA", "postal_code": "19121", "state": "PA", "county": "Philadelphia", "city": "Philadelphia", "street": "1831 N 21st Street"}, "phone": "(215) 763-7760", "distance_in_miles": 0.2, "grades": {"range": {"low": "K", "high": "8"}}, "relevance": "nearby", "ratings": {"great_schools_rating": null, "parent_rating": null}}]}]}